[{"address":"Plaza de la Cebada s/n Entrada de vehículos C/Toledo 77","addressNumber":"s/n","administrativeArea":"MADRID","areaCode":"28005 ","category":"POI Categoria Parking","country":"ESPAÑA","email":"amartinez@mercadodelacebada.com","family":"POI Familia","familyCode":"001","fax":"","id":90,"latitude":"40.410490","longitude":"-3.709082","name":"MERCADO DE LA CEBADA","neutralIcon":"http://urlicono.org/neutro","nickName":"CEBADA","state":"MADRID","telephone":"626263678","town":"MADRID","type":"POI Tipo Parking"},{"address":"Plaza de Callao","addressNumber":"2","administrativeArea":"Madrid","areaCode":"28013 ","category":"POI Categoria Parking","country":"España","email":"gregorio.perezulacia@elcorteingles.es","family":"POI Familia","familyCode":"001","fax":"no dispone","id":91,"latitude":"40.4197702","longitude":"-3.7055168","name":"El Corte Inglés Callao","neutralIcon":"http://urlicono.org/neutro","nickName":"ECI_CALLAO","state":"Madrid","telephone":"915328229","town":"Madrid","type":"POI Tipo Parking"},{"address":"PLAZA DE ORIENTE","addressNumber":"S/N","administrativeArea":"MADRID","areaCode":"28013 ","category":"POI Categoria Parking","country":"ESPAÑA","email":"jrv@firmumcapital.com","family":"POI Familia","familyCode":"001","fax":"","id":73,"latitude":"40.419967","longitude":"-3.712986","name":"PLAZA DE ORIENTE","neutralIcon":"http://urlicono.org/neutro","nickName":"PLAZA DE O","state":"MADRID","telephone":"915481804","town":"MADRID","type":"POI Tipo Parking"},{"address":"PLAZA DEL REY","addressNumber":"S/N","administrativeArea":"MADRID","areaCode":"28004 ","category":"POI Categoria Parking","country":"ESPAÑA","email":"agm@firmumcapital.com","family":"POI Familia","familyCode":"001","fax":"","id":74,"latitude":"40.420215","longitude":"-3.695741","name":"PLAZA DEL REY","neutralIcon":"http://urlicono.org/neutro","nickName":"PLAZA DEL ","state":"MADRID","telephone":"915225219","town":"MADRID","type":"POI Tipo Parking"},{"address":"Plaza Pedro Zerolo","addressNumber":"S/N","administrativeArea":"Madrid","areaCode":"28004 ","category":"POI Categoria Parking","country":"España","email":"aparcamientos@emtmadrid.es","family":"POI Familia","familyCode":"001","fax":"","id":71,"latitude":"","longitude":"","name":"PEDRO ZEROLO","neutralIcon":"http://urlicono.org/neutro","nickName":"P.ZEROLO","state":"","telephone":"914068810","town":"Madrid","type":"POI Tipo Parking"},{"address":"Plaza J. Benavente","addressNumber":"S/N","administrativeArea":"Madrid","areaCode":"28012 ","category":"POI Categoria Parking","country":"España","email":"aparcamientos@emtmadrid.es","family":"POI Familia","familyCode":"001","fax":"","id":15,"latitude":"40.414267","longitude":"-3.703448","name":"Jacinto Benavente","neutralIcon":"http://urlicono.org/neutro","nickName":"Benavente","state":"","telephone":"914068810","town":"Madrid","type":"POI Tipo Parking"},{"address":"Plaza M. Salamanca","addressNumber":"S/N","administrativeArea":"Madrid","areaCode":"28006 ","category":"POI Categoria Parking","country":"España","email":"aparcamientos@emtmadrid.es","family":"POI Familia","familyCode":"001","fax":"","id":25,"latitude":"40.430293","longitude":"-3.679197","name":"Marqués de Salamanca","neutralIcon":"http://urlicono.org/neutro","nickName":"Salamanca","state":"","telephone":"914068810","town":"Madrid","type":"POI Tipo Parking"},{"address":"Plaza Encuentro","addressNumber":"","administrativeArea":"Madrid","areaCode":"      ","category":"POI Categoria Parking","country":"Spain","email":"","family":"POI Familia","familyCode":"001","fax":"","id":4,"latitude":"40.4054645","longitude":"-3.6513541","name":"Encuentro","neutralIcon":"http://urlicono.org/neutro","nickName":"Encuentro","state":"","telephone":"","town":"Madrid","type":"POI Tipo Parking"},{"address":"Plaza Corona Boreal y C/ Marqués Camarines","addressNumber":"","administrativeArea":"Madrid","areaCode":"      ","category":"POI Categoria Parking","country":"Spain","email":"","family":"POI Familia","familyCode":"001","fax":"","id":6,"latitude":"40.4568","longitude":"-3.7832","name":"Corona Boreal","neutralIcon":"http://urlicono.org/neutro","nickName":"CBoreal","state":"","telephone":"","town":"Madrid","type":"POI Tipo Parking"},{"address":"Plaza Condesa de Gavia","addressNumber":"","administrativeArea":"Madrid","areaCode":"      ","category":"POI Categoria Parking","country":"Spain","email":"","family":"POI Familia","familyCode":"001","fax":"","id":10,"latitude":"40.4490039","longitude":"-3.7019123","name":"Condesa de Gavia","neutralIcon":"http://urlicono.org/neutro","nickName":"CGavia","state":"","telephone":"","town":"Madrid","type":"POI Tipo Parking"},{"address":"Plaza Vázquez de Mella, s/n","addressNumber":"","administrativeArea":"Madrid","areaCode":"28004 ","category":"POI Categoria Parking","country":"Spain","email":"","family":"POI Familia","familyCode":"001","fax":"","id":11,"latitude":"40.420653","longitude":"-3.699282","name":"Vázquez de Mella","neutralIcon":"http://urlicono.org/neutro","nickName":"VMella","state":"","telephone":"","town":"Madrid","type":"POI Tipo Parking"},{"address":"Plaza Reyes Magos","addressNumber":"","administrativeArea":"Madrid","areaCode":"      ","category":"POI Categoria Parking","country":"Spain","email":"","family":"POI Familia","familyCode":"001","fax":"","id":35,"latitude":"40.4089554","longitude":"-3.6759568","name":"Reyes Magos","neutralIcon":"http://urlicono.org/neutro","nickName":"RRMM","state":"","telephone":"","town":"Madrid","type":"POI Tipo Parking"},{"address":"Plaza San Cayetano","addressNumber":"","administrativeArea":"Madrid","areaCode":"      ","category":"POI Categoria Parking","country":"Spain","email":"","family":"POI Familia","familyCode":"001","fax":"","id":36,"latitude":"40.434403","longitude":"-3.670343","name":"San Cayetano","neutralIcon":"http://urlicono.org/neutro","nickName":"SCayetano","state":"","telephone":"","town":"Madrid","type":"POI Tipo Parking"},{"address":"Plaza de Los Mostenses","addressNumber":"s/n","administrativeArea":"MADRID","areaCode":"28015 ","category":"POI Categoria Parking","country":"ESPAÑA","email":"mostenses@saba.eu","family":"POI Familia","familyCode":"001","fax":"","id":87,"latitude":"40.422778","longitude":"-3.708806","name":"MOSTENSES","neutralIcon":"http://urlicono.org/neutro","nickName":"MOSTENSES","state":"Madrid","telephone":"917580740","town":"MADRID","type":"POI Tipo Parking"},{"address":"Plaza Mostenses y C/ Ricardo León","addressNumber":"","administrativeArea":"Madrid","areaCode":"      ","category":"POI Categoria Parking","country":"Spain","email":"","family":"POI Familia","familyCode":"001","fax":"","id":50,"latitude":"40.4235602","longitude":"-3.7089974","name":"Mostenses","neutralIcon":"http://urlicono.org/neutro","nickName":"Mostenses","state":"","telephone":"","town":"Madrid","type":"POI Tipo Parking"},{"address":"Plaza de España","addressNumber":"S/N","administrativeArea":"Madrid","areaCode":"28008 ","category":"POI Categoria Parking","country":"España","email":"aparcamientos@emtmadrid.es","family":"POI Familia","familyCode":"001","fax":"","id":53,"latitude":"40.423636","longitude":"-3.711583","name":"Plaza de España","neutralIcon":"http://urlicono.org/neutro","nickName":"PEspaña","state":"","telephone":"914068810","town":"Madrid","type":"POI Tipo Parking"},{"address":"Plaza Villa de París","addressNumber":"S/N","administrativeArea":"Madrid","areaCode":"28004 ","category":"POI Categoria Parking","country":"España","email":"aparcamientos@emtmadrid.es","family":"POI Familia","familyCode":"001","fax":"","id":67,"latitude":"40.425848","longitude":"-3.693658","name":"Villa de París","neutralIcon":"http://urlicono.org/neutro","nickName":"VdeParis","state":"","telephone":"914068810","town":"Madrid","type":"POI Tipo Parking"},{"address":"Plaza Mayor s/n","addressNumber":"s/n","administrativeArea":"MADRID","areaCode":"28012 ","category":"POI Categoria Parking","country":"ESPAÑA","email":"aparcamientos@emtmadrid.es","family":"POI Familia","familyCode":"001","fax":"914 068 879","id":84,"latitude":"40.4200305","longitude":"-3.6963131","name":"Plaza Mayor","neutralIcon":"http://urlicono.org/neutro","nickName":"PMayor","state":"MADRID","telephone":"914 068 810","town":"MADRID","type":"POI Tipo Parking"},{"address":"Plaza de las Descalzas Reales","addressNumber":"s/n","administrativeArea":"MADRID","areaCode":"28013 ","category":"POI Categoria Parking","country":"España","email":"secretaria@aparcasa.es","family":"POI Familia","familyCode":"001","fax":"915233326","id":81,"latitude":"40.418482","longitude":"-3.706983","name":"Plaza de las Descalzas","neutralIcon":"http://urlicono.org/neutro","nickName":"DESCALZAS","state":"MADRID","telephone":"915325757","town":"MADRID","type":"POI Tipo Parking"},{"address":"Plaza de Colón","addressNumber":"s/n","administrativeArea":"MADRID","areaCode":"28001 ","category":"POI Categoria Parking","country":"ESPAÑA","email":"jherranz@empark.com","family":"POI Familia","familyCode":"001","fax":"","id":80,"latitude":"40.424525","longitude":"-3.690138","name":"COLÓN","neutralIcon":"http://urlicono.org/neutro","nickName":"COLÓN","state":"MADRID","telephone":"915761837","town":"MADRID","type":"POI Tipo Parking"},{"address":"Plaza de las Cortes","addressNumber":"s/n","administrativeArea":"MADRID","areaCode":"28012 ","category":"POI Categoria Parking","country":"ESPAÑA","email":"jherranz@empark.com","family":"POI Familia","familyCode":"001","fax":"","id":79,"latitude":"40.41562","longitude":"-3.695354","name":"PLAZA DE LAS CORTES","neutralIcon":"http://urlicono.org/neutro","nickName":"CORTES","state":"MADRID","telephone":"914203155","town":"MADRID","type":"POI Tipo Parking"}]